,title,longitude,latitude
0,개린이집,127.0214681997241,37.48435209991784
1,비트포비아 신논현,127.0261293997241,37.5051623999178
2,주택레스토랑,127.0271456997241,37.504037999917806
3,주택,127.0271457,37.504038
4,빈스플,127.0272757997241,37.50261069991781
5,에나타,127.02602258487593,37.50237500044488
6,누리주방,126.85547669972438,37.403645699917874
7,서울특별시 강남구 강남대로102길 32,127.02788339139958,37.50292487417843
8,알베르,127.02729931456155,37.50246861295753
9,미트프레쉬 강남본점,127.02599402932223,37.50269942785555
10,코지 스테이,127.0249306997241,37.50051989991782
11,아티제 강남점,127.02385979972411,37.502780699917814
12,컴포테이블,127.02717379972408,37.50294039991782
13,비트포비아 강남,127.03109929972406,37.49755479991783
14,다독인더시티,127.03399999972407,37.504579999917816
15,빈브라더스 강남,127.0285745,37.4993235
16,이디야커피랩,127.0328783,37.5104828
17,서울특별시 강남구 강남대로102길 11,127.02735719549081,37.50283291862435
18,벨로치노 신세계백화점 강남점,127.00382019972413,37.505387799917806
19,컴포테이블,127.02717379972408,37.50294039991782
20,프레도,127.02750029400104,37.5025616867422
21,장인닭갈비,127.02712249972409,37.502438899917806
22,타이티 강남직영점,127.03074499972408,37.49927959991783
23,테어커피로스터스,127.04443339972404,37.47432169991788
24,시크릿코드,127.0287070997241,37.497631799917805
25,컴포테이블,127.02717379972408,37.50294039991782
26,더달달 역삼점,127.02748499338863,37.5037048013204
27,가가린 사주카페,127.0278535997241,37.50070439991781
28,브이알 플러스,127.02954099972406,37.49706949991782
29,부띠크모나코,127.02654843656045,37.497908408832714
30,릴리브,127.02669108371184,37.50310433339856
31,토끼정 강남점,127.0273030997241,37.5029711999178
32,빌리엔젤 강남역점,127.02699559972409,37.5014677999178
33,미스터리룸이스케이프,127.02538094793445,37.50136994299581
34,커플심리카페에어카운셀링강남,127.02701109972409,37.501892099917804
35,에스프레소 퍼블릭,127.02681987626963,37.50362535694044
36,베이글카페 양재카페거리점,127.04073399972405,37.47227729991787
37,벨로치노 신세계백화점 강남점,127.00382019972413,37.505387799917806
38,컴포테이블,127.02617348002367,37.50368451893668
39,빌리엔젤 강남역점,127.0269956,37.5014678
40,가비터,127.02775448022184,37.503118284358756
41,컴포테이블,127.02717379972408,37.50294039991782
42,떼시스 강남점,127.02790289972408,37.50296769991782
43,카페413프로젝트,127.03580386984343,37.50124783354413
44,릴리브,127.027238,37.5024936
45,에스프레소 퍼블릭,127.02824216437072,37.50054840005286
46,뿌리 플라워 카페,127.04141046785021,37.527268944975035
47,클로리스 신논현점,127.0255691963392,37.50362919822766
48,서울특별시 강남구 논현동 13-17,127.02257569972411,37.51594349991778
49,릴리브,127.0272379997241,37.50249359991781
50,도로시인호텔,127.0267264,37.5033069
51,더달달 역삼점,127.02834786317483,37.501427813235715
52,컴포테이블,127.0271738,37.5029404
53,비트포비아 신논현,127.0261293997241,37.5051623999178
54,카페무라노,127.02671979972409,37.50390409991782
55,더달달 역삼점,127.02847239972408,37.50321299991781
56,알베르,127.02768408624804,37.502452124874104
57,컴포테이블,127.02717379972408,37.50294039991782
58,프리존사주카페 강남2호점,127.02752367357202,37.499721922524394
59,슬링 펍앤브런치,127.0293017895406,37.501083027374314
60,카푸치노스트립,127.0261898,37.5020457
61,세루리안커피,127.02930619972408,37.49773279991783
62,릴리브,127.0272379997241,37.50249359991781
63,개린이집,127.0214681997241,37.48435209991784
64,미트프레쉬 강남본점,127.0267454997241,37.501945299917814
65,프레도,127.02791999972408,37.50238759991781
66,빽다방 강남역월드점,127.02668664067473,37.49945435920391
67,소담한,127.04107759972405,37.516047199917786
68,꽃을피우고,127.02738899972408,37.501567199917815
69,투썸플레이스,127.02579500282843,37.50383154820949
70,알베르,127.02804259972409,37.503012399917814
71,카페마마스 강남역점,127.02601919993455,37.49648284263691
72,에나타,127.02632559972409,37.502763799917794
73,더왈츠,127.03428749972407,37.49419289991784
74,미스터리룸 이스케이프 강남점,127.02508919972409,37.50099019991781
75,꽃을피우고,127.02725528549283,37.50124217583776
76,캐틀앤비 강남점,127.0242635,37.4973518
77,수수커피,127.0296648,37.497085
78,코믹큐브,127.1129693997239,37.3688003999181
79,반지카페8그램,127.02741722465154,37.50032410311219
80,마망갸또 강남역점,127.0269101997241,37.50280209991781
81,마망갸또 강남역점,127.0269102,37.5028021
82,라뜰리에 역삼점,127.02870472595765,37.49598773912024
83,클로리스 티 앤 커피,127.03243562591581,37.49782140729895
84,컴포테이블,127.02717379972408,37.50294039991782
85,커피빈 강남에스점,127.0257701,37.5004649
86,서울특별시 강남구 논현동 149-1,127.027459656621,37.51076964638862
87,소담한,127.0410776,37.5160472
88,떼시스 강남점,127.02781102896652,37.50318365868658
89,미트프레쉬 강남본점,127.0267454997241,37.501945299917814
90,경기도 수원시 팔달구 교동 3-3,127.01560931074366,37.27393352230567
91,말리커피 강남점,127.0264954,37.4991734
92,꿀잼코믹스,127.02904189972408,37.49946349991781
93,탐앤탐스탐스커버리 강남점,127.0257348,37.5034687
94,마망갸또 강남역점,127.0269102,37.5028021
95,커피빈 강남오토스퀘어점,127.02999199972407,37.49403299991782
96,카페마마스 강남역지점,127.025433,37.496156
97,떼시스 강남점,127.0279029,37.5029677
98,꿀잠,127.0309951,37.4968483
99,릴리브,127.0272379997241,37.50249359991781
100,릴리브,127.027238,37.5024936
101,릴리브,127.0272379997241,37.50249359991781
102,릴리브,127.027238,37.5024936
103,코드케이,127.02576101632248,37.5034754026854
104,알베르,127.02745213607321,37.503352555441936
105,컴포테이블,127.0271738,37.5029404
106,도로시인호텔,127.0267264,37.5033069
107,컴포테이블,127.0271738,37.5029404
108,카푸치노스트립,127.02631261394154,37.500513883141295
109,이디야커피랩,127.0328783,37.5104828
110,잠바주스 서초삼성타운점,127.02818121480304,37.49680553314838
111,에나타,127.02632559972409,37.502763799917794
112,마망갸또 강남역점,127.03333695841145,37.50271950075472
113,더달달 역삼점,127.0284724,37.503213
114,에스프레소 퍼블릭,127.02729185685641,37.50054460111595
115,컴포테이블,127.0271738,37.5029404
116,가가린철우사주카페,127.0286545896334,37.49926542472742
117,강남고양이,127.03345163886308,37.50795357607146
118,코드케이,127.0264229,37.5025767
119,더달달 역삼점,127.02822905880082,37.5023286972231
120,릴리브,127.02637253871231,37.50338247764556
121,수수커피,127.02966479972407,37.49708499991782
122,릴리브,127.02770075852088,37.500873005899166
123,더달달 역삼점,127.02794868325256,37.50373369595525
124,Spc스퀘어주차장,127.029753,37.494216
125,카페에스투,127.02859689972408,37.49960459991782
126,경희 알찬김밥,127.05488399972403,37.59089639991766
127,티라레미수 경희대점,127.05273369972403,37.59138859991766
128,미즈컨테이너 강남역2호점,127.0268037660168,37.501979090118716
129,디씨블랙,127.02208569972412,37.50615839991779
130,프레도,127.02791999972408,37.50238759991781
131,록키마운틴초콜릿팩토리,127.02618219972409,37.50007609991782
132,스타벅스 강남우성점,127.03092119972408,37.49242719991785
133,더달달 역삼점,127.02847239972408,37.50321299991781
134,미스터리룸 이스케이프 강남점,127.02508919972409,37.50099019991781
135,가가린철우사주카페,127.02728333120804,37.49963851608051
136,파리크라상 강남점,127.0255945,37.4999351
137,컴포테이블,127.02651636191192,37.50313606535962
138,투썸플레이스 신논현역점,127.0248235997241,37.5048217999178
139,카카오프렌즈 강남플래그십스토어,127.02578289972409,37.500918299917814
140,릴리브,127.0263188359811,37.50113788020828
141,폰텐드포레,127.04423913721932,37.50955099199548
142,컴포테이블,127.02717379972408,37.50294039991782
143,더달달 역삼점,127.02847239972408,37.50321299991781
144,빈브라더스 강남,127.0285745,37.4993235
145,에스프레소 퍼블릭,127.0278654997241,37.50287239991781
146,카페마마스 강남역지점,127.02751166421196,37.496615011608455
147,레이지앤트,127.05902789972403,37.50280649991782
148,모던커피,128.62509376638587,35.83622154824281
149,릴리브,127.027238,37.5024936
150,릴리브,127.0272379997241,37.50249359991781
151,마망갸또 강남역점,127.0269102,37.5028021
152,오설록티하우스 강남점,127.028122,37.4959675
153,무월식탁,127.02732389972408,37.50262909991781
154,카페스팟 강남역점,127.02790349972408,37.50329439991781
155,빌리엔젤 강남역2호점,127.0258948,37.5004886
156,카페무라노,127.02671979972409,37.50390409991782
157,더달달 역삼점,127.02847239972408,37.50321299991781
158,릴리브,127.027238,37.5024936
159,뉴코피커피,127.02674949972409,37.5023018999178
160,카카오프렌즈강남점,127.02577669972408,37.50094679991783
161,떼시스 강남점,127.02790289972408,37.50296769991782
162,더달달 역삼점,127.02847239972408,37.50321299991781
163,공차 강남교보타워점,127.02383199972408,37.5027559999178
164,미트프레쉬 강남본점,127.0267455,37.5019453
165,뚜레쥬르 강남점,127.02653869972409,37.49804329991781
166,떼시스 강남점,127.0279029,37.5029677
167,서울이스케이프룸 강남점,127.02582259972408,37.49938719991782
168,잉클링,127.02799049972408,37.50242679991782
169,에스프레소 퍼블릭,127.0278654997241,37.50287239991781
170,커피갤러리,127.0266932,37.5024703
171,릴리브,127.027238,37.5024936
172,커피갤러리,127.02669319972408,37.50247029991782
173,겟썸커피 downstairs,127.02759061052033,37.50278221313456
174,빌리엔젤 강남역2호점,127.025895,37.500489
175,지올리띠,127.02538183249352,37.50461895994447
176,카페무라노,127.02671979972409,37.50390409991782
177,롱브레드,127.02678211376218,37.49796127638729
178,앤하우스 강남직영점,127.02717149972408,37.50110999991781
179,베이커스필드,127.0282093,37.5000726
180,와플몬스터 강남역점,127.0298357,37.4970034
181,빠아빠 마스터클래스&디저트카페,127.01705236889148,37.49374428151163
182,도로시인호텔,127.0267264,37.5033069
183,에나타,127.02632559972409,37.502763799917794
184,본누벨,127.03657089972405,37.52736989991777
185,탐앤탐스 강남역사거리점,127.0258294,37.4994016
186,도로시인호텔,127.0267263997241,37.50330689991781
187,가비터,127.0278714,37.5034162
188,에스랩,127.0295563,37.4913042
189,소담한,127.04107759972405,37.516047199917786
190,알베르,127.02804259972409,37.503012399917814
191,뿌리 플라워 카페,127.04132279972404,37.526799899917776
192,알베르,127.02683676442156,37.504053151430384
193,뉴코피커피,127.02675632645665,37.50122029722881
194,더달달 역삼점,127.02847239972408,37.50321299991781
195,고기꾼김춘배 강남점,127.0272103,37.5018614
196,가가린철우사주카페,127.0278536,37.5007044
197,미스터리룸 이스케이프 강남점,127.02508919972409,37.50099019991781
198,떼시스 강남점,127.02790289972408,37.50296769991782
199,말리커피 강남점,127.0264953997241,37.49917339991783
200,코드케이,127.0264229,37.5025767
201,빈브라더스 강남,127.0285744997241,37.49932349991781
202,프리존사주카페 강남2호점,127.027084,37.5012705
